City_ID,City,Country,Lat,Lng,Max Temp,Humidity,Cloudiness,Wind Speed,Current Description
0,Hithadhoo,MV,-0.6,73.0833,82.98,77,51,19.95,broken clouds
1,Bredasdorp,ZA,-34.5322,20.0403,65.28,55,2,22.46,clear sky
2,Severo-Kurilsk,RU,50.6789,156.125,47.01,90,100,20.87,light rain
3,New Norfolk,AU,-42.7826,147.0587,50.92,68,66,11.72,broken clouds
4,Clyde River,CA,70.4692,-68.5914,30.47,72,100,10.0,overcast clouds
5,Vaini,TO,-21.2,-175.2,71.76,94,40,5.75,light rain
6,Ushuaia,AR,-54.8,-68.3,47.82,42,20,19.57,few clouds
7,Busselton,AU,-33.65,115.3333,51.08,70,0,13.69,clear sky
8,Labuhan,ID,-6.8844,112.2051,82.65,73,83,11.05,broken clouds
9,Verkh-Usugli,RU,52.7,115.1667,41.29,80,100,6.38,overcast clouds
10,Albany,US,42.6001,-73.9662,76.86,82,96,1.01,overcast clouds
11,Kurumkan,RU,54.3,110.3,41.88,69,15,3.94,few clouds
12,Sitka,US,57.0531,-135.33,51.69,71,90,24.16,light rain
13,Souillac,MU,-20.5167,57.5167,73.36,75,25,13.62,scattered clouds
14,Lagoa,PT,39.05,-27.9833,69.15,67,62,13.56,broken clouds
15,Atuona,PF,-9.8,-139.0333,77.47,73,5,17.18,clear sky
16,Nouadhibou,MR,20.931,-17.0347,71.91,82,5,20.11,clear sky
17,Iqaluit,CA,63.7506,-68.5145,29.61,81,10,5.14,clear sky
18,Thompson,CA,55.7435,-97.8558,52.47,68,100,4.34,overcast clouds
19,Cidreira,BR,-30.1811,-50.2056,64.81,65,52,18.1,broken clouds
20,Buraydah,SA,26.326,43.975,102.36,9,0,10.42,clear sky
21,Dikson,RU,73.5069,80.5464,35.64,62,64,3.94,broken clouds
22,Mar Del Plata,AR,-38.0023,-57.5575,57.22,88,90,5.75,light rain
23,Wajima,JP,37.4,136.9,71.78,71,87,13.27,light rain
24,Yulara,AU,-25.2406,130.9889,60.64,20,0,5.75,clear sky
25,Mandalgovi,MN,45.7625,106.2708,51.42,62,3,4.74,clear sky
26,Broken Hill,AU,-31.95,141.4333,59.79,39,4,12.33,clear sky
27,Cap-Aux-Meules,CA,47.3821,-61.8597,60.22,91,7,16.46,clear sky
28,Kindberg,AT,47.5,15.45,70.32,45,11,4.16,few clouds
29,Hurghada,EG,27.2574,33.8129,91.92,31,0,20.58,clear sky
30,Port Elizabeth,ZA,-33.918,25.5701,81.1,41,90,19.37,overcast clouds
31,Vardo,NO,70.3705,31.1107,48.4,69,100,23.4,overcast clouds
32,Cayenne,GF,4.9333,-52.3333,89.64,73,75,1.99,broken clouds
33,Esqueda,MX,30.7167,-109.5833,67.78,66,100,1.03,overcast clouds
34,Hasaki,JP,35.7333,140.8333,73.8,85,94,8.66,overcast clouds
35,Qaanaaq,GL,77.484,-69.3632,17.19,60,10,6.89,clear sky
36,Saint Anthony,US,45.0205,-93.218,57.81,78,1,4.0,clear sky
37,Rudbar,AF,30.15,62.6,88.45,9,0,7.7,clear sky
38,Bilma,NE,18.6853,12.9164,101.89,7,25,0.76,scattered clouds
39,Kapaa,US,22.0752,-159.319,75.18,80,90,8.05,light rain
40,Port Macquarie,AU,-31.4333,152.9167,51.76,80,0,6.11,clear sky
41,Punta Arenas,CL,-53.15,-70.9167,46.51,53,20,31.07,few clouds
42,Ascension,US,30.2169,-90.9001,70.0,72,1,4.61,clear sky
43,Ouango,CF,4.3133,22.5552,77.65,74,83,4.23,broken clouds
44,Rikitea,PF,-23.1203,-134.9692,74.07,71,7,21.43,clear sky
45,Katherine,AU,-14.4667,132.2667,68.32,24,65,5.75,broken clouds
46,Mahmudabad,IN,27.3,81.1167,84.16,86,8,6.08,clear sky
47,Butaritari,KI,3.0707,172.7902,82.56,72,100,13.71,overcast clouds
48,Dubovskoye,RU,47.4092,42.7575,62.51,48,100,3.36,light rain
49,Caravelas,BR,-17.7125,-39.2481,74.44,57,100,13.4,overcast clouds
50,Saint-Philippe,RE,-21.3585,55.7679,75.22,79,39,11.95,scattered clouds
51,Tilichiki,RU,60.4667,166.1,41.14,89,90,2.71,overcast clouds
52,Gisborne,NZ,-38.6533,178.0042,54.95,93,33,6.8,scattered clouds
53,Cherskiy,RU,68.75,161.3,29.23,94,100,4.41,overcast clouds
54,Barrow,US,71.2906,-156.7887,28.42,74,90,4.61,overcast clouds
55,Codrington,AU,-38.2667,141.9667,49.73,93,6,13.87,clear sky
56,Kachug,RU,53.9606,105.8817,40.96,57,26,2.04,scattered clouds
57,Teknaf,BD,20.8624,92.3058,80.98,85,70,3.78,broken clouds
58,Cape Town,ZA,-33.9258,18.4232,68.88,63,4,5.99,clear sky
59,Carnarvon,AU,-24.8667,113.6333,68.07,77,0,11.5,clear sky
60,Gat,IL,31.61,34.7642,81.81,24,0,16.71,clear sky
61,Kidal,ML,18.4411,1.4078,102.43,17,58,5.7,broken clouds
62,Ribeira Grande,PT,38.5167,-28.7,73.8,68,20,14.97,few clouds
63,Kaitangata,NZ,-46.2817,169.8464,53.2,64,61,13.91,broken clouds
64,Kodiak,US,57.79,-152.4072,43.59,91,100,25.79,moderate rain
65,Ribas Do Rio Pardo,BR,-20.4431,-53.7592,86.79,27,87,10.2,overcast clouds
66,Kilindoni,TZ,-7.9139,39.6668,78.4,71,3,13.33,clear sky
67,Bereda,ES,43.2686,-7.5406,73.42,69,4,8.84,clear sky
68,Faya,SA,18.3851,42.4509,75.72,38,85,11.65,overcast clouds
69,Hermanus,ZA,-34.4187,19.2345,67.89,71,3,19.82,clear sky
70,Husavik,IS,66.0449,-17.3389,42.22,59,100,8.03,light rain
71,Hellvik,NO,59.9156,5.781,53.78,83,100,5.01,overcast clouds
72,Tual,ID,-5.6667,132.75,79.81,82,96,19.19,overcast clouds
73,Roma,US,43.2128,-75.4557,75.13,82,90,12.66,overcast clouds
74,Portland,US,45.5234,-122.6762,59.47,91,75,1.01,broken clouds
75,Menongue,AO,-14.6585,17.691,96.73,9,42,10.09,scattered clouds
76,Joinville,BR,-26.3044,-48.8456,67.95,62,65,1.99,broken clouds
77,Yellowknife,CA,62.456,-114.3525,46.92,100,90,8.05,light rain
78,Paamiut,GL,61.994,-49.6678,34.45,75,23,10.76,few clouds
79,Beringovskiy,RU,63.05,179.3167,36.68,98,100,2.1,light rain
80,Torbay,CA,47.6666,-52.7314,68.29,77,55,9.15,broken clouds
81,Bambous Virieux,MU,-20.3428,57.7575,73.22,76,28,14.43,scattered clouds
82,Tessalit,ML,20.1986,1.0114,103.5,14,33,5.23,scattered clouds
83,Cabo San Lucas,MX,22.8909,-109.9124,82.51,85,10,8.03,clear sky
84,Kabala,SL,9.5833,-11.55,85.03,63,99,3.38,light rain
85,Mnogovershinnyy,RU,53.9353,139.9242,39.45,97,34,3.6,scattered clouds
86,Igarka,RU,67.4667,86.5833,32.29,89,34,10.22,scattered clouds
87,Kadyy,RU,57.787,43.1903,51.24,86,96,8.43,overcast clouds
88,Mataura,NZ,-46.1927,168.8643,48.47,72,73,9.06,light rain
89,Sao Filipe,CV,14.8961,-24.4956,80.6,73,20,5.95,few clouds
90,Dharchula,IN,29.85,80.5333,69.12,89,89,2.28,overcast clouds
91,Shitanjing,CN,39.2342,106.3439,63.09,64,100,7.52,overcast clouds
92,Tiksi,RU,71.6872,128.8694,36.93,97,100,14.58,light rain
93,Te Anau,NZ,-45.4167,167.7167,46.18,95,77,6.82,broken clouds
94,Georgetown,MY,5.4112,100.3354,84.88,76,20,0.0,few clouds
95,Olinda,BR,-8.0089,-34.8553,82.13,65,40,8.05,scattered clouds
96,Berlevag,NO,70.8578,29.0864,48.15,53,0,13.8,clear sky
97,Hobart,AU,-42.8794,147.3294,51.26,67,40,3.0,scattered clouds
98,Kapit,MY,2.0167,112.9333,75.25,96,100,0.47,overcast clouds
99,Aranos,NA,-24.1333,19.1167,95.76,4,0,11.65,clear sky
100,Saldanha,ZA,-33.0117,17.9442,61.65,78,5,9.98,clear sky
101,Port Hedland,AU,-20.3167,118.5667,69.85,68,94,8.05,overcast clouds
102,Crotone,IT,39.0851,17.1178,73.71,47,8,23.71,clear sky
103,Vanavara,RU,60.34,102.2797,31.98,89,100,4.12,overcast clouds
104,Grand-Santi,GF,4.25,-54.3833,88.88,46,24,4.7,few clouds
105,Svencionys,LT,55.15,26.1667,50.86,66,96,8.61,overcast clouds
106,Saskylakh,RU,71.9167,114.0833,33.96,99,100,11.74,light rain
107,Kruisfontein,ZA,-34.0033,24.7314,78.89,29,72,22.15,broken clouds
108,Preobrazheniye,RU,42.9019,133.9064,58.98,81,100,11.07,overcast clouds
109,Honolulu,US,21.3069,-157.8583,76.82,74,75,10.36,broken clouds
110,Birin,NP,26.8865,88.0718,63.66,92,48,1.5,scattered clouds
111,Avarua,CK,-21.2078,-159.775,69.85,64,20,8.05,few clouds
112,Padang,ID,-0.9492,100.3543,80.65,86,68,2.71,broken clouds
113,Ilulissat,GL,69.2167,-51.1,24.82,46,75,11.5,broken clouds
114,Maragogi,BR,-9.0122,-35.2225,83.88,62,20,8.72,few clouds
115,Ponta Do Sol,PT,32.6667,-17.1,76.12,50,100,5.03,overcast clouds
116,Les Cayes,HT,18.2,-73.75,84.99,65,22,4.68,few clouds
117,Bulgan,MN,48.8125,103.5347,40.62,81,8,3.33,clear sky
118,Kuandian,CN,40.7286,124.7847,53.2,93,1,5.37,clear sky
119,Alice Springs,AU,-23.7,133.8833,54.95,26,7,4.61,clear sky
120,Kautokeino,NO,69.0125,23.0412,38.75,97,100,19.89,overcast clouds
121,Dahra,DZ,36.2546,0.8519,81.99,46,99,7.58,overcast clouds
122,High Level,CA,58.5169,-117.136,39.72,69,3,10.09,clear sky
123,Castro,BR,-24.7911,-50.0119,63.28,46,12,7.94,few clouds
124,Hofn,IS,64.2539,-15.2082,41.02,75,90,3.44,moderate rain
125,Kavieng,PG,-2.5744,150.7967,81.19,78,100,11.61,overcast clouds
126,Hilo,US,19.7297,-155.09,71.8,88,20,5.75,few clouds
127,Sambava,MG,-14.2667,50.1667,74.77,68,2,15.84,clear sky
128,Pingliang,CN,35.5392,106.6861,62.29,86,80,3.62,broken clouds
129,Tomelloso,ES,39.1522,-3.0243,80.11,43,16,21.59,few clouds
130,Kurchum,KZ,48.5722,83.6542,47.8,37,4,4.94,clear sky
131,East London,ZA,-33.0153,27.9116,76.51,57,94,18.37,overcast clouds
132,Kununurra,AU,-15.7667,128.7333,58.98,55,2,0.0,clear sky
133,Ipameri,BR,-17.7219,-48.1597,91.51,31,5,11.9,clear sky
134,Ayan,RU,56.45,138.1667,51.48,65,0,5.03,clear sky
135,Bonthe,SL,7.5264,-12.505,82.62,75,66,8.68,moderate rain
136,Borgarnes,IS,64.5383,-21.9206,41.56,89,100,9.28,light rain
137,Khatanga,RU,71.9667,102.5,33.75,99,100,4.92,overcast clouds
138,Norman Wells,CA,65.282,-126.8329,32.4,91,97,3.94,overcast clouds
139,Beloha,MG,-25.1667,45.05,71.78,64,66,16.67,broken clouds
140,Pevek,RU,69.7008,170.3133,28.47,96,100,3.13,light snow
141,Provideniya,RU,64.3833,-173.3,32.56,76,96,2.86,overcast clouds
142,Tiarei,PF,-17.5333,-149.3333,73.42,77,2,12.06,light rain
143,Tasiilaq,GL,65.6145,-37.6368,39.36,53,96,5.59,overcast clouds
144,Prince Rupert,CA,54.3161,-130.3201,50.09,81,90,8.05,overcast clouds
145,Ipixuna,BR,-1.7625,-48.8043,87.75,54,16,6.11,few clouds
146,Duldurga,RU,50.6761,113.5931,39.27,82,9,4.09,clear sky
147,Vao,NC,-22.6667,167.4833,66.9,57,1,16.08,clear sky
148,Griffith,US,41.5284,-87.4237,55.54,74,1,1.01,clear sky
149,Tuktoyaktuk,CA,69.4541,-133.0374,33.26,79,100,4.18,overcast clouds
150,Ahipara,NZ,-35.1667,173.1667,56.57,90,99,19.28,overcast clouds
151,Valparaiso,CL,-33.0393,-71.6273,65.32,56,0,4.61,clear sky
152,Loiza,PR,18.4313,-65.8802,89.2,72,40,6.91,scattered clouds
153,Saint George,US,37.1041,-113.5841,69.53,27,1,0.0,clear sky
154,Talaya,RU,61.3833,152.75,35.47,85,15,1.07,few clouds
155,Jiuquan,CN,39.7432,98.5174,65.32,29,82,4.05,broken clouds
156,Leningradskiy,RU,69.3833,178.4167,24.71,90,100,5.79,overcast clouds
157,Airai,TL,-8.9266,125.4092,58.53,81,93,1.97,overcast clouds
158,Kaduna,NG,10.5222,7.4383,77.68,71,100,3.74,overcast clouds
159,Huarmey,PE,-10.0681,-78.1522,64.87,80,89,6.49,overcast clouds
160,Ushtobe,KZ,45.2514,77.9838,56.32,23,100,12.55,overcast clouds
161,San Policarpo,PH,12.1791,125.5072,81.43,83,32,8.7,scattered clouds
162,Gravelbourg,CA,49.8834,-106.5512,54.1,64,54,4.9,broken clouds
163,Vila Franca Do Campo,PT,37.7167,-25.4333,73.81,58,40,8.41,scattered clouds
164,Makakilo City,US,21.3469,-158.0858,75.52,73,90,4.61,overcast clouds
165,San Quintin,MX,30.4833,-115.95,72.7,77,97,8.88,overcast clouds
166,Filadelfia,US,39.9523,-75.1638,81.01,77,75,10.0,broken clouds
167,Chino Valley,US,34.7575,-112.4538,64.71,41,1,3.44,clear sky
168,Tezu,IN,27.9167,96.1667,76.48,83,5,4.18,clear sky
169,Bilibino,RU,68.0546,166.4372,24.22,97,100,1.59,light snow
170,Nyurba,RU,63.2842,118.3319,40.48,74,100,2.77,overcast clouds
171,Vestmannaeyjar,IS,63.4427,-20.2734,40.19,100,90,37.98,overcast clouds
172,Parabel,RU,58.6978,81.4825,34.83,87,100,6.11,overcast clouds
173,Huanren,CN,41.2647,125.3667,56.01,96,96,2.59,overcast clouds
174,Muros,ES,42.7762,-9.0603,80.98,53,10,7.4,clear sky
175,Denpasar,ID,-8.65,115.2167,80.26,89,40,13.8,scattered clouds
176,Sharjah,AE,25.3573,55.4033,94.98,52,0,11.5,clear sky
177,Tuatapere,NZ,-46.1333,167.6833,48.81,90,91,15.26,overcast clouds
178,Sawtell,AU,-30.3833,153.1,55.42,76,0,6.91,clear sky
179,Varca,IN,15.2167,73.9167,78.06,88,100,7.49,light rain
180,Port Alfred,ZA,-33.5906,26.891,75.72,53,100,4.45,overcast clouds
181,Richards Bay,ZA,-28.783,32.0377,72.63,57,87,18.19,overcast clouds
182,Havre-Saint-Pierre,CA,50.2334,-63.5986,52.16,93,90,16.11,mist
183,Olafsvik,IS,64.8945,-23.7142,39.51,97,100,15.73,overcast clouds
184,Boa Vista,BR,2.8197,-60.6733,87.78,58,40,9.22,scattered clouds
185,Sarkand,KZ,45.41,79.9186,49.59,31,62,2.19,broken clouds
186,North Platte,US,41.1239,-100.7654,56.01,63,1,3.0,clear sky
187,Salaverry,PE,-8.2333,-78.9667,61.45,88,95,4.21,overcast clouds
188,Laguna,US,38.421,-121.4238,73.22,75,1,0.0,clear sky
189,Roald,NO,62.5833,6.1333,52.9,81,75,12.66,broken clouds
190,Kuah,MY,6.3265,99.8432,83.52,74,80,6.2,broken clouds
191,Upernavik,GL,72.7868,-56.1549,25.05,75,66,7.07,broken clouds
192,Puerto Ayora,EC,-0.7393,-90.3518,69.12,88,99,9.98,overcast clouds
193,Placido De Castro,BR,-10.3353,-67.1856,97.25,31,22,2.48,few clouds
194,Quatre Cocos,MU,-20.2078,57.7625,73.09,77,27,15.14,scattered clouds
195,Lebu,CL,-37.6167,-73.65,54.12,67,13,7.47,few clouds
196,Kitzbuhel,AT,47.4464,12.3922,68.86,38,5,3.13,clear sky
197,Turkistan,KZ,43.0,68.0,72.55,17,22,7.81,few clouds
198,Kutum,SD,14.2,24.6667,90.25,19,99,12.26,overcast clouds
199,Fortuna,US,40.5982,-124.1573,51.98,94,90,1.99,overcast clouds
200,Sept-Iles,CA,50.2001,-66.3821,51.26,96,100,1.01,overcast clouds
201,Mackay,AU,-21.15,149.2,59.04,65,5,9.04,clear sky
202,Boysun,UZ,38.2061,67.1986,68.43,23,0,3.83,clear sky
203,Puerto Princesa,PH,9.7392,118.7353,79.7,83,100,2.8,overcast clouds
204,Terrace,CA,54.5163,-128.6035,48.42,100,90,4.61,overcast clouds
205,Bluff,NZ,-46.6,168.3333,48.79,83,95,30.78,overcast clouds
206,Gillette,US,44.2911,-105.5022,58.12,33,1,5.99,clear sky
207,Krasnoselkup,RU,65.7,82.4667,33.3,89,98,14.14,overcast clouds
208,Karratha,AU,-20.7377,116.8463,76.24,46,95,7.2,overcast clouds
209,Sorland,NO,67.667,12.6934,49.86,81,75,17.27,broken clouds
210,Bar Harbor,US,44.3876,-68.2039,73.45,77,1,8.99,clear sky
211,Chuy,UY,-33.6971,-53.4616,59.56,76,100,7.81,overcast clouds
212,Marsh Harbour,BS,26.5412,-77.0636,83.7,68,94,8.25,overcast clouds
213,Oranjestad,AW,12.524,-70.027,87.75,70,20,18.41,few clouds
214,Uklana Mandi,IN,29.5023,75.8849,75.87,91,97,5.68,overcast clouds
215,Dudinka,RU,69.4058,86.1778,30.79,90,24,8.43,few clouds
216,Piriyapatna,IN,12.3397,76.0992,77.72,91,86,7.45,overcast clouds
217,Okahandja,NA,-21.9833,16.9167,95.83,5,68,16.26,broken clouds
218,Lorengau,PG,-2.0226,147.2712,81.19,79,92,9.4,overcast clouds
219,Nara,JP,34.6851,135.8049,74.48,73,99,3.29,overcast clouds
220,Port Lincoln,AU,-34.7333,135.8667,54.32,83,0,8.81,clear sky
221,Hobyo,SO,5.3505,48.5268,79.41,78,99,26.37,overcast clouds
222,Ulladulla,AU,-35.35,150.4667,62.1,61,0,10.13,clear sky
223,Curillo,CO,1.0333,-75.9191,70.23,97,100,1.14,overcast clouds
224,Benguela,AO,-12.5763,13.4055,75.38,77,100,10.42,overcast clouds
225,Isangel,VU,-19.55,169.2667,70.86,81,85,16.75,overcast clouds
226,Poum,NC,-20.2333,164.0167,69.53,67,52,17.34,broken clouds
227,Lata,PT,40.1629,-8.3327,68.36,72,100,3.22,overcast clouds
228,Amuntai,ID,-2.4177,115.2494,77.27,88,100,2.3,overcast clouds
229,Bubaque,GW,11.2833,-15.8333,82.08,72,100,3.85,overcast clouds
230,Honggang,CN,46.4667,124.8667,52.81,71,8,5.37,clear sky
231,Lavumisa,SZ,-27.31,31.892,81.75,27,0,11.16,clear sky
232,Gombe,NG,10.2897,11.1673,83.32,62,97,7.36,overcast clouds
233,Anshun,CN,26.25,105.9333,64.72,95,6,8.75,clear sky
234,Talnakh,RU,69.4865,88.3972,34.0,78,11,4.16,few clouds
235,Sechura,PE,-5.5569,-80.8222,68.02,72,84,7.27,broken clouds
236,Alyangula,AU,-13.8483,136.4192,73.02,81,44,8.28,scattered clouds
237,Mount Isa,AU,-20.7333,139.5,51.57,28,1,0.0,clear sky
238,Sao Joao Da Barra,BR,-21.6403,-41.0511,71.69,52,75,12.57,broken clouds
239,Savannah Bight,HN,16.45,-85.85,87.01,73,26,6.8,scattered clouds
240,Sioux Lookout,CA,50.1001,-91.917,55.72,64,8,8.19,clear sky
241,Arraial Do Cabo,BR,-22.9661,-42.0278,69.66,56,75,6.91,broken clouds
242,Nosy Varika,MG,-20.5833,48.5333,72.95,69,9,7.2,clear sky
243,Kaabong,UG,3.4836,34.1492,79.21,39,45,12.06,scattered clouds
244,Shupiyan,IN,33.7167,74.8333,59.25,73,17,6.6,few clouds
245,Lubango,AO,-14.9172,13.4925,90.59,10,88,10.49,overcast clouds
246,Jamestown,US,42.097,-79.2353,62.19,80,75,8.99,broken clouds
247,Tartus,SY,34.889,35.8866,82.69,60,1,26.62,clear sky
248,Uruzgan,AF,32.8333,66.0,73.35,11,0,4.65,clear sky
249,Praia Da Vitoria,PT,38.7333,-27.0667,69.87,63,82,11.01,broken clouds
250,Adeje,ES,28.1227,-16.726,77.52,56,75,1.99,broken clouds
251,Severodvinsk,RU,64.5635,39.8302,46.51,82,100,12.73,overcast clouds
252,Synya,RU,65.3718,58.0387,39.81,85,100,2.84,overcast clouds
253,Tomatlan,MX,19.9333,-105.25,76.78,80,9,2.55,clear sky
254,Viransehir,TR,37.2353,39.7631,83.71,29,63,14.92,broken clouds
255,Inhambane,MZ,-23.865,35.3833,72.82,54,4,9.89,clear sky
256,Kushiro,JP,42.975,144.3747,57.36,94,100,13.76,overcast clouds
257,Ixtapa,MX,20.7,-105.2,80.22,94,1,4.61,clear sky
258,Minot,US,48.2325,-101.2963,61.02,44,1,4.0,clear sky
259,Pochutla,MX,15.7432,-96.4661,79.83,61,16,1.3,few clouds
260,Nadapuram,IN,11.7,75.6667,77.11,91,96,4.94,overcast clouds
261,Abilene,US,32.4487,-99.7331,68.49,35,1,6.91,clear sky
262,Maruko,JP,36.3167,138.2667,65.93,93,90,2.8,overcast clouds
263,Katsuura,JP,35.1333,140.3,78.91,82,87,13.96,overcast clouds
264,Tsumeb,NA,-19.2333,17.7167,95.23,7,27,7.85,scattered clouds
265,Cacheu,GW,12.2706,-16.1658,91.15,54,71,7.72,broken clouds
266,Daru,PG,-9.0763,143.2092,75.56,88,100,18.66,overcast clouds
267,Shasta Lake,US,40.6804,-122.3708,72.32,45,31,7.38,scattered clouds
268,Abu Dhabi,AE,24.4667,54.3667,95.02,46,0,8.05,clear sky
269,Pathein,MM,16.7833,94.7333,75.45,97,100,4.36,overcast clouds
270,Aromashevo,RU,56.8602,68.6375,40.77,80,99,4.27,overcast clouds
271,Qorveh,IR,35.1664,47.8045,74.89,13,0,15.64,clear sky
272,Coquimbo,CL,-29.9533,-71.3436,60.53,63,0,4.61,clear sky
273,Chapais,CA,49.7834,-74.8492,44.38,68,100,9.82,overcast clouds
274,Bandarbeyla,SO,9.4942,50.8122,80.28,77,41,28.05,scattered clouds
275,Panama City,PA,8.9936,-79.5197,81.18,82,75,4.61,broken clouds
276,Abha,SA,18.2164,42.5053,75.45,41,75,6.91,broken clouds
277,Ximei,CN,24.9639,118.3794,78.35,89,99,3.24,light rain
278,Nieves,PH,15.3274,120.9485,76.3,89,72,1.52,broken clouds
279,Rosetta,EG,31.4044,30.4164,80.51,68,0,19.75,clear sky
280,Purpe,RU,64.4803,76.6897,37.87,98,100,14.61,light rain
281,Yarkovo,RU,57.4028,67.0786,41.34,81,95,3.11,overcast clouds
282,Bethel,US,41.3712,-73.414,77.85,86,90,4.0,overcast clouds
283,Tocopilla,CL,-22.092,-70.1979,67.03,60,3,12.95,clear sky
284,Komsomolets,KZ,53.7453,62.0708,48.24,46,2,5.91,clear sky
285,Cervo,ES,43.6702,-7.4101,75.2,78,90,12.35,overcast clouds
286,Sistranda,NO,63.7256,8.834,50.9,81,100,14.56,overcast clouds
287,Zabolotovka,RU,50.2737,39.3147,50.88,74,100,7.85,light rain
288,Marzuq,YE,14.4,46.4667,90.72,12,4,18.7,clear sky
289,Hamilton,US,39.1834,-84.5333,58.08,87,20,1.99,few clouds
290,Kupino,RU,54.3663,77.2981,38.79,74,88,9.13,overcast clouds
291,Neuquen,AR,-38.9516,-68.0591,60.69,44,0,5.75,clear sky
292,Bad Durrenberg,DE,51.3,12.0667,73.87,45,0,25.32,clear sky
293,Sur,OM,22.5667,59.5289,89.19,55,6,2.21,clear sky
294,Campiglia Marittima,IT,43.0602,10.6152,81.52,47,11,5.97,few clouds
295,Faanui,PF,-16.4833,-151.75,76.8,73,15,9.86,light rain
296,Alofi,NU,-19.0595,-169.9187,74.57,65,42,16.75,scattered clouds
297,Vaitape,PF,-16.5167,-151.75,76.78,73,16,9.75,light rain
298,Kathu,TH,7.9178,98.3332,78.62,81,96,9.1,overcast clouds
299,Ashtian,IR,34.5217,50.0019,77.58,5,0,14.52,clear sky
300,Lourdes,FR,43.1,-0.05,71.08,60,75,8.05,broken clouds
301,Esperance,AU,-33.8667,121.9,54.12,71,71,13.8,broken clouds
302,Hay River,CA,60.8156,-115.7999,41.9,85,100,16.71,overcast clouds
303,Zyryanka,RU,65.75,150.85,35.6,67,8,6.46,clear sky
304,Garissa,KE,-0.4536,39.6401,89.11,36,88,17.72,overcast clouds
305,Guerrero Negro,MX,27.9769,-114.0611,71.44,83,7,4.52,clear sky
306,Gualeguay,AR,-33.1416,-59.3097,57.7,84,100,4.12,overcast clouds
307,Chivasso,IT,45.1894,7.8872,78.01,48,40,2.3,scattered clouds
308,Noumea,NC,-22.2763,166.4572,62.58,65,2,8.5,clear sky
309,Bengkulu,ID,-3.8004,102.2655,77.67,88,82,2.66,light rain
310,Mino,JP,34.8269,135.4706,74.43,67,91,6.22,overcast clouds
311,Grindavik,IS,63.8424,-22.4338,41.47,87,90,23.02,overcast clouds
312,Soe,ID,-9.8607,124.284,63.3,76,33,3.85,scattered clouds
313,Shaunavon,CA,49.6501,-108.4181,52.68,63,99,3.44,overcast clouds
314,Tsaratanana,MG,-16.7833,47.65,84.81,32,0,12.28,clear sky
315,Miandrivazo,MG,-19.5167,45.4667,83.32,40,98,2.46,light rain
316,Manokwari,ID,-0.8667,134.0833,78.75,83,98,7.7,moderate rain
317,Pozo Colorado,PY,-23.4923,-58.7972,83.82,35,94,6.76,overcast clouds
318,Yar-Sale,RU,66.8333,70.8333,41.14,72,100,15.73,overcast clouds
319,Indramayu,ID,-6.3264,108.32,83.08,75,74,9.33,broken clouds
320,Rocha,UY,-34.4833,-54.3333,60.87,69,100,5.44,overcast clouds
321,Chake Chake,TZ,-5.2459,39.7666,80.49,63,7,9.04,clear sky
322,Ulaanbaatar,MN,47.9077,106.8832,35.73,64,0,2.24,clear sky
323,Pitimbu,BR,-7.4706,-34.8086,86.59,65,34,12.97,scattered clouds
324,Peabiru,BR,-23.9128,-52.3431,74.59,32,90,8.77,overcast clouds
325,Taltal,CL,-25.4,-70.4833,64.42,60,2,7.47,clear sky
326,Port-Gentil,GA,-0.7193,8.7815,78.66,81,21,10.47,few clouds
327,Lahat,ID,-3.8,103.5333,74.08,95,60,3.15,broken clouds
328,Corinto,GR,37.9407,22.9573,72.41,48,19,5.75,few clouds
329,Koslan,RU,63.4564,48.8989,46.35,73,3,5.61,clear sky
330,Alexandria,EG,31.2156,29.9553,81.39,65,0,18.43,clear sky
331,Hove,GB,50.8309,-0.1672,70.18,73,40,16.11,scattered clouds
332,Bentiu,SS,9.2333,29.8333,91.62,51,100,1.72,overcast clouds
333,Camana,PE,-16.6228,-72.7111,63.03,81,99,10.33,overcast clouds
334,Ereymentau,KZ,51.6199,73.1033,40.69,63,95,6.58,overcast clouds
335,Chumikan,RU,54.7183,135.315,47.64,63,0,4.32,clear sky
336,College,US,64.8569,-147.8028,29.28,72,40,6.91,scattered clouds
337,Jimo,CN,36.3897,120.4622,71.98,76,95,3.6,light rain
338,Stokmarknes,NO,68.5646,14.9108,53.49,62,40,6.91,scattered clouds
339,Mitu,CO,1.1983,-70.1733,72.79,97,100,2.89,overcast clouds
340,Uchiza,PE,-8.4592,-76.4633,74.26,78,79,2.95,broken clouds
341,Sola,VU,-13.8833,167.55,78.93,79,79,13.71,broken clouds
342,Manama,BH,26.2154,50.5832,98.78,34,0,13.8,clear sky
343,Beisfjord,NO,68.3751,17.5988,53.65,70,98,5.26,overcast clouds
344,Shanghai,CN,31.2222,121.4581,80.46,75,0,11.18,light rain
345,Marsabit,KE,2.3284,37.9899,80.56,30,11,19.15,few clouds
346,Kahului,US,20.8947,-156.47,71.69,77,1,0.0,clear sky
347,Boyolangu,ID,-8.1181,111.8935,76.59,89,99,4.63,overcast clouds
348,Shingu,JP,33.7333,135.9833,72.91,73,85,5.32,overcast clouds
349,Halifax,CA,44.6453,-63.5724,75.52,82,44,1.01,scattered clouds
350,Aklavik,CA,68.2191,-135.0107,30.2,98,100,2.28,light snow
351,Sami,GM,13.5833,-15.2,91.83,57,60,4.54,broken clouds
352,Nikolskoye,RU,59.7035,30.7861,46.29,87,100,8.99,overcast clouds
353,Nadym,RU,65.5333,72.5167,39.76,82,100,16.51,overcast clouds
354,Laurel,US,39.0993,-76.8483,65.46,96,90,4.0,overcast clouds
355,San Angelo,US,31.4638,-100.437,63.54,54,1,1.99,clear sky
356,Casalmaggiore,IT,44.9939,10.4189,76.15,39,95,4.34,overcast clouds
357,Sao Jose Da Coroa Grande,BR,-8.8978,-35.1478,83.8,62,20,8.39,few clouds
358,Esso,RU,55.9333,158.7,35.83,93,19,2.59,few clouds
359,Ferme-Neuve,CA,46.7001,-75.4493,56.37,99,100,2.8,light rain
360,Mollendo,PE,-17.0231,-72.0147,61.74,82,100,9.19,overcast clouds
361,Burgos,ES,42.3394,-3.7079,70.21,49,20,17.27,few clouds
362,Victoria,HK,22.2855,114.1577,84.33,84,98,17.31,light rain
363,Redmond,US,47.674,-122.1215,58.66,90,93,1.01,overcast clouds
364,Constitucion,CL,-35.3333,-72.4167,58.68,61,0,6.78,clear sky
365,Touros,BR,-5.1989,-35.4608,88.7,63,99,12.73,overcast clouds
366,Haines Junction,CA,60.7522,-137.5108,33.04,97,100,2.15,overcast clouds
367,Takanosu,JP,40.2219,140.3694,61.3,97,15,3.91,few clouds
368,Darhan,MN,49.4867,105.9228,45.37,64,10,1.88,clear sky
369,Cockburn Town,TC,21.4612,-71.1419,82.45,76,100,5.68,overcast clouds
370,Havoysund,NO,70.9963,24.6622,49.08,80,100,24.14,overcast clouds
371,Ashikaga,JP,36.3333,139.45,73.81,77,82,2.68,broken clouds
372,Mehamn,NO,71.0357,27.8492,48.38,72,100,18.86,overcast clouds
373,Robertsport,LR,6.7533,-11.3686,81.57,75,55,9.13,light rain
374,Carauari,BR,-4.8828,-66.8958,81.72,74,100,3.33,overcast clouds
375,Zhigansk,RU,66.7697,123.3711,40.86,78,99,6.73,overcast clouds
376,Bende,NG,5.5572,7.6368,78.01,84,100,2.64,overcast clouds
377,Gurupa,BR,-1.405,-51.64,90.27,53,33,5.95,scattered clouds
378,Namibe,AO,-15.1961,12.1522,69.91,84,78,13.91,broken clouds
379,Rio Bueno,CL,-40.3167,-72.9667,50.14,63,44,1.21,scattered clouds
380,Honningsvag,NO,70.9821,25.9704,47.95,76,75,18.41,broken clouds
381,Vanimo,PG,-2.6741,141.3028,78.73,88,100,7.7,overcast clouds
382,Kimbe,PG,-5.5502,150.1429,74.89,93,100,5.14,overcast clouds
383,Klaksvik,FO,62.2266,-6.589,47.32,67,100,17.6,overcast clouds
384,Belaya Gora,RU,68.5333,146.4167,33.33,69,37,3.71,scattered clouds
385,Taybad,IR,34.74,60.7756,82.76,11,0,12.48,clear sky
386,Nuevo Progreso,MX,23.1667,-97.95,72.46,66,25,3.0,scattered clouds
387,Bayan,CN,46.0833,127.4,48.33,71,3,5.57,clear sky
388,Jumla,NP,29.2747,82.1838,60.24,95,98,0.56,overcast clouds
389,Ambajogai,IN,18.7333,76.3833,74.08,87,100,3.69,overcast clouds
390,Luderitz,NA,-26.6481,15.1594,69.17,53,0,17.27,clear sky
391,Tonj,SS,7.2737,28.6822,88.81,60,100,4.27,overcast clouds
392,Atambua,ID,-9.1061,124.8925,73.04,70,78,4.27,broken clouds
393,Rongcheng,CN,30.634,117.8517,75.7,68,65,3.33,light rain
394,Nanortalik,GL,60.1432,-45.2371,37.69,74,31,21.34,scattered clouds
395,Ranong,TH,9.9658,98.6348,78.87,84,100,6.35,overcast clouds
396,Reynosa,MX,26.0833,-98.2833,71.96,72,1,3.44,smoke
397,Longyearbyen,SJ,78.2186,15.6401,44.44,70,40,11.5,scattered clouds
398,Mahebourg,MU,-20.4081,57.7,73.26,76,24,14.29,few clouds
399,Anloga,GH,5.7947,0.8973,81.61,75,80,11.36,broken clouds
400,Bose,IT,45.4612,8.0137,74.53,61,97,2.01,overcast clouds
401,Geraldton,AU,-28.7667,114.6,63.01,88,0,18.41,clear sky
402,Karimnagar,IN,18.4333,79.15,78.76,86,100,4.27,light rain
403,Hervey Bay,AU,-25.2986,152.8535,60.04,69,0,6.33,clear sky
404,Khudumelapye,BW,-23.8833,24.75,84.22,17,0,7.02,clear sky
405,Pombos,BR,-8.1414,-35.3958,80.19,51,72,11.56,broken clouds
406,Sakaraha,MG,-22.9,44.5333,86.5,21,25,7.05,scattered clouds
407,Sabang,ID,5.8933,95.3214,83.37,80,87,13.49,overcast clouds
408,Mosbach,DE,49.3539,9.1428,75.0,54,5,11.65,clear sky
409,Bagdarin,RU,54.4333,113.6,30.13,96,37,3.02,scattered clouds
410,Can Tho,VN,10.0333,105.7833,80.58,74,40,4.61,light rain
411,Hami,CN,42.8,93.45,73.22,16,99,7.65,overcast clouds
412,Meulaboh,ID,4.1363,96.1285,80.06,81,100,2.64,overcast clouds
413,Batagay-Alyta,RU,67.8006,130.4114,32.97,76,52,5.39,broken clouds
414,Dingle,PH,10.9995,122.6711,76.73,89,98,4.92,overcast clouds
415,Victor Harbor,AU,-35.5667,138.6167,54.91,87,0,8.79,clear sky
416,Togur,RU,58.3631,82.8265,34.48,93,100,5.57,overcast clouds
417,Brufut,GM,13.3814,-16.7518,82.45,77,72,7.31,broken clouds
418,Svetlaya,RU,46.5389,138.3297,50.9,78,71,7.9,broken clouds
419,Izhmorskiy,RU,56.194,86.6414,33.21,94,57,3.6,broken clouds
420,Mareeba,AU,-17.0,145.4333,65.12,97,0,2.98,clear sky
421,Ligayan,PH,4.6533,119.4706,83.48,71,16,7.4,few clouds
422,Atar,MR,20.5169,-13.0499,103.75,11,7,6.85,clear sky
423,Sumbe,AO,-11.2061,13.8437,75.61,75,86,9.69,overcast clouds
424,Axim,GH,4.8699,-2.2405,82.58,72,74,9.8,broken clouds
425,Jiangyan,CN,32.5061,120.1428,72.07,87,99,9.24,light rain
426,Morgan City,US,29.6994,-91.2068,70.0,82,1,9.22,clear sky
427,Pisco,PE,-13.7,-76.2167,64.02,81,86,5.53,overcast clouds
428,North Bend,US,43.4065,-124.2243,53.94,96,1,0.0,mist
429,Ancud,CL,-41.8697,-73.8203,54.43,72,95,7.83,overcast clouds
430,Mayo,US,38.8876,-76.5119,69.98,88,90,6.91,heavy intensity rain
431,Moranbah,AU,-22.0016,148.0466,58.71,71,0,10.04,clear sky
432,Sao Miguel Do Araguaia,BR,-13.275,-50.1628,103.23,13,23,5.77,few clouds
433,Novo Aripuana,BR,-5.1206,-60.3797,93.42,46,38,3.49,scattered clouds
434,Udachnyy,RU,66.4167,112.4,36.59,70,77,6.4,broken clouds
435,Forres,GB,57.6113,-3.6108,58.89,57,75,12.66,broken clouds
436,Lazaro Cardenas,MX,17.9583,-102.2,78.37,88,7,4.16,clear sky
437,Saryg-Sep,RU,51.5,95.6,45.16,41,100,2.8,overcast clouds
438,Port Hawkesbury,CA,45.6169,-61.3485,72.03,79,1,1.99,haze
439,Channel-Port Aux Basques,CA,47.5702,-59.1367,60.64,92,56,11.3,broken clouds
440,Waipawa,NZ,-41.4122,175.5153,52.45,83,6,14.14,clear sky
441,Newton,US,42.337,-71.2092,77.95,81,90,1.01,mist
442,Grand Forks,US,47.9417,-97.4337,57.13,62,40,13.8,scattered clouds
443,Nagorsk,RU,59.3172,50.8078,49.51,71,99,4.0,overcast clouds
444,Kemijarvi,FI,66.7131,27.4306,46.15,63,100,13.15,overcast clouds
445,Challans,FR,46.8436,-1.8749,76.12,39,0,7.43,clear sky
446,Barao De Melgaco,BR,-16.1944,-55.9675,86.52,17,2,6.2,clear sky
447,Taoudenni,ML,22.6783,-3.9836,110.1,6,0,3.85,clear sky
448,Hualmay,PE,-11.0964,-77.6139,63.52,80,96,5.32,overcast clouds
449,Champerico,GT,14.3,-91.9167,84.34,78,99,3.15,overcast clouds
450,Hambantota,LK,6.1241,81.1185,82.26,78,59,19.17,broken clouds
451,Christchurch,NZ,-43.5333,172.6333,41.2,100,90,2.3,fog
452,Emerald,AU,-23.5333,148.1667,59.74,71,0,11.05,clear sky
453,Rossland,CA,49.0831,-117.8022,45.91,78,99,1.32,overcast clouds
454,Yershichi,RU,53.6725,32.7542,42.67,88,100,4.34,overcast clouds
455,Krasnyy Chikoy,RU,50.3643,108.7512,37.71,84,4,2.3,clear sky
456,Margate,GB,51.3813,1.3862,70.7,69,100,9.84,overcast clouds
457,Katangli,RU,51.7102,143.2326,49.01,89,100,12.53,overcast clouds
458,Gainesville,US,29.6516,-82.3248,74.68,72,90,8.05,overcast clouds
459,Gurkovo,BG,42.6667,25.8,60.98,41,63,9.24,broken clouds
460,Caucaia,BR,-3.7361,-38.6531,85.95,75,75,14.97,broken clouds
461,Mizdah,LY,31.4451,12.9801,98.87,9,22,7.96,few clouds
462,Mweka,CD,-4.85,21.5667,77.38,74,100,3.53,light rain
463,San Francisco,US,37.7749,-122.4194,60.44,92,75,1.01,fog
464,Sisimiut,GL,66.9395,-53.6735,29.59,60,50,5.41,scattered clouds
465,Tautira,PF,-17.7333,-149.15,73.42,75,0,9.19,light rain
466,Ust-Kuyga,RU,70.0167,135.6,38.23,68,100,2.1,overcast clouds
467,Ramygala,LT,55.5167,24.3,53.82,77,95,13.76,overcast clouds
468,Toba Tek Singh,PK,30.9743,72.4827,88.25,51,54,9.37,broken clouds
469,Srednekolymsk,RU,67.45,153.6833,36.27,61,100,2.93,overcast clouds
470,Matara,LK,5.9485,80.5353,80.2,85,42,10.25,scattered clouds
471,Tafresh,IR,34.692,50.013,79.25,6,0,11.16,clear sky
472,Sarab,IR,38.6066,44.9883,82.87,17,29,14.25,scattered clouds
473,Masuguru,TZ,-11.3667,38.4167,94.66,21,79,4.27,broken clouds
474,Pacific Grove,US,36.6177,-121.9166,59.43,94,90,4.0,overcast clouds
475,Am Timan,TD,11.0297,20.2827,83.46,65,100,4.25,overcast clouds
476,Xichang,CN,27.8964,102.2634,65.8,85,47,3.09,scattered clouds
477,Luwuk,ID,-0.9516,122.7875,75.67,92,76,3.4,broken clouds
478,Northam,GB,51.0333,-4.2167,67.71,92,100,12.86,overcast clouds
479,San Rafael,AR,-34.6177,-68.3301,63.46,34,3,8.79,clear sky
480,Ajaccio,FR,42.0,8.9167,75.36,61,0,17.27,clear sky
481,Yong Peng,MY,2.0136,103.0659,77.04,87,94,3.38,overcast clouds
482,Chokurdakh,RU,70.6333,147.9167,28.15,95,100,5.23,overcast clouds
483,Portales,US,34.1862,-103.3344,62.02,33,77,9.42,broken clouds
484,Alizai,PK,33.5383,70.3462,78.49,67,12,4.94,few clouds
485,Alvaraes,BR,-3.2208,-64.8042,84.07,68,100,4.07,overcast clouds
486,Thinadhoo,MV,0.5333,72.9333,83.14,77,24,21.27,few clouds
487,Flin Flon,CA,54.7682,-101.865,51.87,82,100,6.17,overcast clouds
488,Tokur,RU,53.1333,132.9,35.58,82,0,1.99,clear sky
489,Vernon,CA,50.2581,-119.2691,54.99,84,96,2.04,overcast clouds
490,Carroll,US,39.5501,-77.0164,63.46,81,90,1.99,overcast clouds
491,Komsomolskiy,UZ,40.4272,71.7189,75.92,29,0,2.3,clear sky
492,Pahalgam,IN,34.0333,75.3333,55.63,78,19,3.0,few clouds
493,Asvanyraro,HU,47.8273,17.4942,70.09,43,100,7.31,overcast clouds
494,Misratah,LY,32.3754,15.0925,83.84,66,23,13.31,few clouds
495,Comodoro Rivadavia,AR,-45.8667,-67.5,62.46,42,20,28.77,few clouds
496,Keningau,MY,5.3378,116.1602,73.85,97,100,1.95,light rain
497,Coahuayana,MX,18.7333,-103.6833,81.88,80,6,3.06,clear sky
498,Vostok,RU,46.4856,135.8833,41.16,92,33,2.57,scattered clouds
499,Pasighat,IN,28.0667,95.3333,78.13,84,2,2.89,clear sky
500,Asau,RO,46.4333,26.4,53.96,62,99,1.7,overcast clouds
501,Sorong,ID,-0.8833,131.25,79.7,82,100,7.18,overcast clouds
502,Bundaberg,AU,-24.85,152.35,60.22,92,40,0.0,scattered clouds
503,Saint-Augustin,CA,51.226,-58.6502,53.11,88,100,8.39,overcast clouds
504,Asfi,MA,32.2994,-9.2372,71.89,75,100,13.8,overcast clouds
505,Ketchikan,US,55.3422,-131.6461,48.97,91,100,12.03,light rain
506,Trelew,AR,-43.249,-65.3051,67.14,28,0,14.2,clear sky
507,Qaqortoq,GL,60.7167,-46.0333,41.5,62,12,11.36,few clouds
508,Bathsheba,BB,13.2167,-59.5167,90.21,62,40,12.66,scattered clouds
509,Rosarito,MX,32.3333,-117.0333,70.09,69,90,8.41,overcast clouds
510,Vila Velha,BR,-20.3297,-40.2925,73.35,53,75,16.11,broken clouds
511,Abu Zabad,SD,12.35,29.25,92.95,38,72,5.57,broken clouds
512,Wenling,CN,28.3669,121.36,75.36,82,28,1.66,light rain
513,Simbakoro,SL,8.6,-11.0167,80.64,82,69,3.02,moderate rain
514,Tura,IN,25.5198,90.2201,74.53,95,13,1.81,few clouds
515,Lakes Entrance,AU,-37.8811,147.981,52.16,76,0,7.45,clear sky
516,Morshansk,RU,53.4435,41.8107,53.4,70,100,4.61,light rain
517,Camacupa,AO,-12.0167,17.4833,94.53,8,72,7.94,broken clouds
518,Kearney,US,40.6995,-99.0815,55.33,76,1,5.75,clear sky
519,San Vicente,AR,-26.6167,-54.1333,74.5,44,100,5.44,overcast clouds
520,Ilebo,CD,-4.3167,20.5833,89.24,46,97,6.91,overcast clouds
521,Quzhou,CN,28.9594,118.8686,76.41,82,1,2.37,clear sky
522,Sarakhs,IR,36.5449,61.1577,86.43,12,0,8.48,clear sky
523,Visnes,NO,59.3556,5.2242,55.45,71,40,23.02,scattered clouds
524,Kirakira,SB,-10.4544,161.9205,77.52,87,89,6.08,overcast clouds
525,Salamiyah,SY,35.0113,37.0532,77.76,45,0,30.51,clear sky
526,Canala,NC,-21.5333,165.95,61.29,68,31,6.29,scattered clouds
527,Aripuana,BR,-9.1667,-60.6333,98.35,30,13,2.08,few clouds
528,Araouane,ML,18.9048,-3.5265,105.35,9,6,5.86,clear sky
529,Kandrian,PG,-6.2167,149.55,76.41,92,100,9.28,light rain
530,Falun,SE,60.6036,15.626,50.41,91,100,7.78,light rain
531,Wagar,SD,16.1525,36.2032,98.83,28,18,3.85,few clouds
532,Los Llanos De Aridane,ES,28.6585,-17.9182,71.35,79,75,10.36,volcanic ash
533,Okato,NZ,-39.2,173.8833,48.69,93,34,6.51,scattered clouds
534,Queanbeyan,AU,-35.35,149.2333,49.91,90,40,6.91,scattered clouds
535,Sfantu Gheorghe,RO,45.8667,25.7833,47.82,62,100,11.23,overcast clouds
536,Skara,SE,58.3866,13.4384,56.93,84,98,13.0,light rain
537,Lima,PE,-12.0432,-77.0282,62.91,86,90,3.44,overcast clouds
538,Auray,FR,47.6703,-2.9918,70.88,69,4,3.85,clear sky
539,Egvekinot,RU,66.3167,-179.1667,24.64,98,100,2.24,light snow
540,Kotido,UG,2.9806,34.1331,83.59,34,80,11.83,broken clouds
541,Zenzeli,RU,45.9241,47.0474,62.42,60,100,8.79,overcast clouds
542,Emet,TR,39.343,29.2585,48.43,81,100,8.37,light rain
543,Henties Bay,NA,-22.116,14.2845,59.86,69,11,12.97,few clouds
544,Cananeia,BR,-25.0147,-47.9267,66.45,62,92,5.21,overcast clouds
545,Soyo,AO,-6.1349,12.3689,77.38,77,98,9.13,overcast clouds
546,Ukiah,US,39.1502,-123.2078,66.36,69,1,0.0,clear sky
547,Barranca,PE,-10.75,-77.7667,62.4,81,100,5.37,overcast clouds
548,Kavaratti,IN,10.5669,72.642,82.51,78,91,16.62,overcast clouds
549,Mahon,ES,39.8885,4.2658,79.36,73,75,13.8,broken clouds
550,Valle Nacional,MX,17.7833,-96.3167,77.5,75,61,0.65,broken clouds
551,Sajanan,TN,37.0573,9.2426,91.09,41,9,9.31,clear sky
552,Circleville,US,39.6006,-82.946,54.18,76,90,11.5,overcast clouds
553,Manbij,SY,36.5281,37.9549,81.37,33,0,23.64,clear sky
554,Ostrovnoy,RU,68.0531,39.5131,47.91,74,7,19.3,clear sky
555,Siguiri,GN,11.6667,-9.5,87.96,54,79,3.0,broken clouds
556,Morehead,US,37.2711,-87.1764,56.98,82,1,1.01,clear sky
557,Flores,GT,16.9226,-89.8994,73.33,96,98,3.24,overcast clouds
558,Porto Uniao,BR,-26.2381,-51.0783,65.52,49,55,4.36,broken clouds
559,Mananara,MG,-16.1667,49.7667,72.95,72,1,7.81,clear sky
560,Bantou,CN,26.2151,117.4893,76.39,85,36,2.44,light rain
561,Tucuman,AR,-26.8241,-65.2226,68.0,52,1,4.61,clear sky
562,Rabo De Peixe,PT,37.8,-25.5833,72.91,64,20,13.8,few clouds
563,Ust-Karsk,RU,52.7011,118.8077,42.85,95,9,5.21,clear sky
564,Okhotsk,RU,59.3833,143.3,46.72,75,1,1.72,clear sky
565,Deputatskiy,RU,69.3,139.9,34.09,79,100,3.85,overcast clouds
566,Uvalde,US,29.3669,-99.767,65.35,42,1,6.91,clear sky
567,Nabire,ID,-3.3667,135.4833,76.71,90,100,2.06,overcast clouds
568,Marawi,PH,7.9986,124.2928,67.64,96,96,1.28,overcast clouds
569,Mitchell,US,43.7094,-98.0298,58.73,61,1,5.99,clear sky
570,Dzhebariki-Khaya,RU,62.2167,135.8,38.95,74,26,0.69,scattered clouds
571,Malanje,AO,-9.5402,16.341,94.77,14,86,11.05,overcast clouds
572,San Cristobal,VE,7.7669,-72.225,78.98,95,100,4.16,overcast clouds
573,Sao Felix Do Xingu,BR,-6.6447,-51.995,95.92,32,81,4.47,broken clouds
574,Coolum Beach,AU,-26.5333,153.1,58.33,86,9,5.68,clear sky
575,Toowoomba,AU,-27.55,151.9667,52.25,77,0,3.11,clear sky
576,Tarakan,ID,3.3,117.6333,79.68,78,69,3.4,broken clouds
577,Port Moresby,PG,-9.4431,147.1797,73.83,91,100,10.36,overcast clouds
578,Lang Son,VN,21.8333,106.7333,75.15,91,30,0.98,scattered clouds
579,Byron Bay,AU,-28.65,153.6167,60.91,84,5,12.21,clear sky
580,Half Moon Bay,US,37.4636,-122.4286,60.39,91,90,3.44,mist
581,Kieta,PG,-6.2167,155.6333,77.86,85,85,4.05,light rain
582,Pedernales,DO,18.0384,-71.744,83.62,71,30,4.16,scattered clouds
583,Japura,ID,-0.3167,102.35,76.51,90,40,3.18,scattered clouds
584,Dubbo,AU,-32.25,148.6167,48.33,93,0,3.44,clear sky
585,El Alto,PE,-4.2714,-81.2147,64.06,68,15,6.17,few clouds
586,Meadow Lake,US,34.8014,-106.5436,66.0,42,100,5.73,overcast clouds
587,Storforshei,NO,66.4043,14.5233,49.78,76,75,5.75,broken clouds
588,Moron,AR,-34.6534,-58.6198,64.02,76,91,5.01,overcast clouds
589,Korla,CN,41.7597,86.1469,70.3,27,1,5.55,clear sky
590,Port Shepstone,ZA,-30.7414,30.455,70.68,73,0,26.28,clear sky
591,Linqiong,CN,30.4159,103.4609,73.26,90,49,5.21,scattered clouds
592,Raudeberg,NO,61.9875,5.1352,51.4,92,74,1.99,broken clouds
593,Maarianhamina,AX,60.0973,19.9348,55.26,94,90,21.85,heavy intensity rain
594,Aswan,EG,24.0934,32.907,101.77,10,0,12.44,clear sky
595,Palaia Fokaia,GR,37.72,23.9463,70.75,62,50,21.45,scattered clouds
596,Luena,AO,-11.7833,19.9167,94.84,8,91,10.45,overcast clouds
597,Iralaya,HN,15.0,-83.2333,82.49,82,100,3.74,overcast clouds
598,Jurado,CO,7.1053,-77.7641,77.83,89,99,2.08,light rain
599,Gamba,GA,-2.65,10.0,80.82,68,44,11.52,scattered clouds
600,Riyadh,SA,24.6877,46.7219,104.14,9,5,8.75,clear sky
601,Mlonggo,ID,-6.5333,110.7,81.52,78,35,11.86,scattered clouds
602,Coronel,CL,-37.0167,-73.1333,53.62,62,5,2.86,clear sky
603,Arbuzynka,UA,47.9097,31.3196,48.31,73,99,13.53,overcast clouds
604,Dunedin,NZ,-45.8742,170.5036,50.81,74,50,1.99,scattered clouds
605,Tukrah,LY,32.5341,20.5791,79.07,64,5,17.72,clear sky
606,Tshikapa,CD,-6.4167,20.8,84.61,56,99,7.58,moderate rain
607,Vilyuysk,RU,63.7553,121.6247,40.46,74,100,2.66,overcast clouds
608,Pokhara,NP,28.2333,83.9833,70.95,91,54,2.15,broken clouds
609,Ha Giang,VN,22.8333,104.9833,74.75,98,85,0.45,overcast clouds
610,Mazeikiai,LT,56.3167,22.3333,55.83,89,100,14.16,light rain
611,Kirovo-Chepetsk,RU,58.5539,50.0399,47.93,75,100,7.2,overcast clouds
612,Guarapari,BR,-20.6667,-40.4975,73.29,62,87,13.65,overcast clouds
613,Wanxian,CN,30.8039,108.3897,80.76,75,99,3.78,light rain
614,Yerbogachen,RU,61.2767,108.0108,37.27,83,100,4.56,overcast clouds
615,Cap Malheureux,MU,-19.9842,57.6142,73.47,71,1,10.0,clear sky
616,Bloomfield,US,40.8068,-74.1854,80.06,82,90,4.0,overcast clouds
617,Arlit,NE,18.7369,7.3853,101.8,15,99,5.01,overcast clouds
618,Yumen,CN,40.2833,97.2,66.61,28,100,10.58,overcast clouds
619,Oranjemund,NA,-28.55,16.4333,62.91,69,1,13.8,clear sky
620,Niquero,CU,20.0431,-77.5828,83.03,73,7,4.07,clear sky
621,Immokalee,US,26.4187,-81.4173,86.92,85,1,0.0,clear sky
622,Port Blair,IN,11.6667,92.75,79.54,81,100,11.95,moderate rain
623,Kaili,ID,-3.4626,120.2147,66.92,91,100,2.68,overcast clouds
624,Oistins,BB,13.0667,-59.5333,89.69,62,40,12.66,scattered clouds
625,Castanos,MX,26.7833,-101.4167,62.19,72,1,0.0,clear sky
626,Natal,BR,-5.795,-35.2094,88.45,55,75,17.27,broken clouds
627,Magura,RO,45.2667,26.5833,56.62,47,29,17.13,scattered clouds
628,Papara,BR,-3.9839,-38.7273,84.6,41,58,8.84,broken clouds
629,Socorro,US,31.6546,-106.3033,72.37,40,75,3.44,broken clouds
630,Natitingou,BJ,10.3042,1.3796,80.74,68,90,2.1,overcast clouds
631,Naron,ES,43.5167,-8.1528,81.03,62,20,16.26,few clouds
632,Svetlogorsk,BY,52.6333,29.7333,43.12,92,100,2.39,overcast clouds
633,Ondjiva,AO,-17.0667,15.7333,101.17,6,87,8.39,overcast clouds
634,Meiktila,MM,20.8667,95.8667,80.26,82,100,5.48,light rain
635,Zlobin,HR,45.2924,14.6541,64.38,42,0,3.44,clear sky
636,San Lorenzo,PY,-25.3333,-57.5333,74.34,60,0,9.22,clear sky
637,Acapulco,MX,16.8634,-99.8901,82.22,78,75,3.44,broken clouds
638,Maridi,SS,4.9158,29.4742,83.77,62,50,5.93,scattered clouds
639,Onega,RU,63.9061,38.1404,48.06,79,95,10.16,overcast clouds
640,Tateyama,JP,34.9833,139.8667,78.82,77,99,19.22,overcast clouds
641,Moose Factory,CA,51.2585,-80.6094,43.9,68,100,5.95,overcast clouds
642,Flagstaff,US,35.1981,-111.6513,62.44,43,10,1.99,clear sky
643,Leshukonskoye,RU,64.8989,45.7622,47.64,71,0,7.29,clear sky
644,Pangai,TO,-19.8,-174.35,74.71,81,100,15.08,overcast clouds
645,Warwick,US,41.7001,-71.4162,78.76,83,75,14.97,broken clouds
646,Santa Maria,BR,-29.6842,-53.8069,61.61,72,97,6.87,overcast clouds
647,Lumphat,KH,13.4878,106.9816,72.45,99,100,1.74,heavy intensity rain
648,Oga,IT,46.4631,10.347,63.14,32,100,2.21,overcast clouds
649,Naze,JP,28.3667,129.4833,76.55,68,0,7.99,clear sky
650,Mackenzie,CA,55.2999,-123.1698,37.45,80,100,3.06,overcast clouds
651,Necochea,AR,-38.5473,-58.7368,60.04,92,100,8.08,overcast clouds
652,Skibbereen,IE,51.55,-9.2667,66.0,67,76,12.86,broken clouds
653,Zonguldak,TR,41.25,31.8333,49.05,94,100,1.97,light rain
654,Machico,PT,32.7,-16.7667,76.12,64,40,13.8,scattered clouds
655,Beira,MZ,-19.8436,34.8389,77.09,65,20,13.8,few clouds
656,Ponta Delgada,PT,37.7333,-25.6667,74.12,64,20,13.8,few clouds
657,Pangody,RU,65.85,74.4859,38.55,92,100,17.98,light rain
658,Saint Stephen,GB,50.3333,-4.9,67.39,94,40,14.97,scattered clouds
659,Najran,SA,17.4924,44.1277,90.36,11,26,14.83,scattered clouds
660,Orlik,RU,52.5178,99.825,38.5,57,100,1.36,overcast clouds
661,Upington,ZA,-28.4478,21.2561,92.89,12,1,16.24,clear sky
662,Manta,EC,-0.95,-80.7333,72.3,82,100,10.36,overcast clouds
663,Lutkun,RU,41.4808,47.6858,63.32,73,36,3.22,scattered clouds
664,Rio Cuarto,AR,-33.1307,-64.3499,60.84,51,0,4.61,clear sky
665,Trat,TH,12.5,102.5,76.37,93,100,2.48,overcast clouds
666,Fairbanks,US,64.8378,-147.7164,29.3,73,75,1.14,broken clouds
667,Platonovka,RU,52.7106,41.952,53.11,61,100,4.7,light rain
668,Vuktyl,RU,63.8567,57.3094,43.66,78,100,3.38,overcast clouds
669,Vrangel,RU,42.7297,133.0839,57.47,89,100,5.97,overcast clouds
670,Spencer,US,43.1414,-95.1444,56.52,72,1,5.75,clear sky
671,Buchanan,LR,5.8808,-10.0467,83.21,72,52,8.3,light rain
672,Xudat,AZ,41.631,48.681,64.71,86,100,11.86,overcast clouds
673,Zalantun,CN,48.0,122.7167,52.14,88,57,3.6,broken clouds
674,Amga,RU,60.8953,131.9608,39.94,87,12,1.68,few clouds
675,Mount Gambier,AU,-37.8333,140.7667,50.04,97,32,9.48,scattered clouds
676,La Palma,US,33.8464,-118.0467,79.02,84,1,0.0,clear sky
677,Uarini,BR,-2.99,-65.1083,84.15,63,74,3.31,broken clouds
678,Baykit,RU,61.67,96.37,34.41,98,100,5.55,light rain
679,Tevaitoa,PF,-16.7833,-151.5,76.8,73,16,9.22,few clouds
680,Davila,PH,18.4726,120.5763,82.44,80,1,13.87,clear sky
681,Gigmoto,PH,13.7796,124.39,80.83,86,13,7.16,few clouds
682,Zeya,RU,53.75,127.2667,46.47,73,100,3.44,overcast clouds
683,Coihaique,CL,-45.5752,-72.0662,55.35,67,75,4.61,broken clouds
684,Gallup,US,35.5281,-108.7426,42.64,49,1,0.0,clear sky
685,Yankton,US,42.8711,-97.3973,55.65,62,1,5.75,clear sky
686,Verkhoyansk,RU,67.5447,133.385,38.61,78,99,4.72,overcast clouds
687,Houma,US,29.5958,-90.7195,70.0,76,1,8.05,clear sky
688,Dogondoutchi,NE,13.6393,4.0287,93.11,39,46,0.45,scattered clouds
689,San Patricio,US,28.017,-97.5169,80.46,41,2,7.29,clear sky
690,Fallon,US,39.4735,-118.7774,55.92,53,1,6.91,clear sky
691,Westport,US,41.1415,-73.3579,79.11,85,90,1.99,overcast clouds
692,Nampa,US,43.5407,-116.5635,55.42,68,1,5.75,clear sky
693,Paltin,RO,45.7833,26.7167,43.05,65,92,8.28,overcast clouds
694,Brawley,US,32.9787,-115.5303,81.61,57,57,3.44,broken clouds
695,Clovis,US,36.8252,-119.7029,77.02,52,1,0.0,smoke
696,Teya,RU,60.3778,92.6267,32.72,96,100,6.11,overcast clouds
697,Ankang,CN,32.68,109.0172,71.98,95,99,3.0,light rain
698,Warmbad,NA,-28.45,18.7333,88.12,5,2,15.5,clear sky
699,Tevriz,RU,57.509,72.4042,38.3,80,100,4.23,overcast clouds
700,Saint-Paul,RE,-21.0096,55.2707,75.74,75,68,2.3,broken clouds
701,Yarada,IN,17.65,83.2667,82.72,94,75,3.44,mist
702,Isilkul,RU,54.9109,71.2728,42.17,61,100,6.29,overcast clouds
703,Bowen,AU,-20.0167,148.2333,65.37,69,0,10.25,clear sky
704,Ojinaga,MX,29.5667,-104.4167,68.95,30,1,4.61,clear sky
705,Bin Qirdan,TN,33.1378,11.2197,87.22,56,100,11.7,overcast clouds
706,Honiara,SB,-9.4333,159.95,76.98,87,98,5.08,overcast clouds
707,Mezen,RU,65.8522,44.24,49.1,67,5,9.35,clear sky
708,Biak,ID,-0.9131,122.8766,74.57,90,82,4.65,broken clouds
